nome,latitude,longitude
Clínica Nutec - Av Vilmary 2499,-5.07407,-42.7771
Clínica Nutec II - R Prof Elías Tôrres 757,-5.0738609,-42.805
Instituto Pro Bem,-5.093,-42.7790883
Centro de Referência na Inclusão de Autistas e outros transtornos - Conjunto Quadra Casa 27 - R Nove 26 - Saci,-5.1379529,-42.8016176
Instituto Livre Ser,-5.090,-42.807
Neurofases Espaço Multidisciplinar - R Antônio Neves de Melo 4752/A - Parque Ideal,-5.09734,-42.74892
